placeId;location;placeName;nameId;totalStayHrs;0;1;2;3;4;5;6;7;8;9;10;11;12;13;14;15;16;17;18;19;20;21;22;23;city;state;country;latitude;longitude;latitudeSchematic;longitudeSchematic
1;Rue des Bonnes Luites, Chemin Dessous, Martigny, Valais/Wallis, 1920, Switzerland;Rue des Bonnes-Luites 31;Google;773.3558333333333;34.02444444444444;35.0;35.0;35.0;35.0;35.0;35.0;34.153333333333336;31.99972222222222;31.426666666666666;31.0;30.80638888888889;28.838333333333335;29.596944444444443;29.190277777777776;29.718333333333334;31.273888888888887;29.886111111111113;28.83361111111111;30.701944444444443;32.0;32.43222222222222;33.47361111111111;34.0;Zurich;Zurich;Switzerland;46.10734969119047;7.078784450714286;45.6917690901598;6.58239636998616
2;Bassersdorf, Bassersdorf Bahnhof, Bassersdorf, Bezirk Bülach, Zürich, 8303, Switzerland;Bassersdorf Bassersdorf Bahnhof;OSMAPI;114.21138888888888;5.0;5.0;5.0;5.0;5.0;5.0;5.0;10.777222222222223;3.7005555555555554;5.137777777777778;4.0;4.0;3.4522222222222223;3.0;2.790277777777778;3.0;3.0;3.9494444444444445;4.460555555555556;5.972222222222222;5.692777777777778;5.951666666666667;5.326666666666667;5.0;Zurich;Zurich;Switzerland;47.438623920454546;8.62566198409091;47.6349158641321;8.83621771030067
3;Max-Frisch-Platz, Affolternstrasse, Oerlikon, Kreis 11, Zürich, Bezirk Zürich, Zürich, 8050, Switzerland;Train station Oerlikon;Google;15.831111111111111;0.0;0.0;0.0;0.0;0.0;0.0;0.0;1.8144444444444445;0.8408333333333333;0.8619444444444444;0.0;0.8711111111111111;1.9677777777777778;1.156111111111111;1.0;1.0;1.0;1.7822222222222222;1.9566666666666668;0.8525;0.0;0.7275;0.0;0.0;Zurich;Zurich;Switzerland;47.411929693750004;8.543910396874999;47.5948251658056;8.71052317134246
4;ETH Zürich, Hönggerberg, Glaubtenstrasse, Höngg, Kreis 10, Zürich, Bezirk Zürich, Zürich, 8093, Switzerland;ETH H枚nggerberg;Google;33.25;0.0;0.0;0.0;0.0;0.0;0.0;0.0;0.06388888888888888;2.5108333333333333;3.1375;4.0;3.128888888888889;3.783333333333333;4.0;4.0;3.714722222222222;3.4525;1.4583333333333333;0.0;0.0;0.0;0.0;0.0;0.0;Zurich;Zurich;Switzerland;47.4084044;8.507454146666667;47.5896969304781;8.65406097055567
5;Route du Scex-de-Chernex, Vernex, Chamby, Montreux, District de la Riviera-Pays-d’Enhaut, Vaud, 1832, Switzerland;Route du Scex-de-Chernex Vernex;OSMAPI;36.856944444444444;2.0;2.0;2.0;2.0;2.0;2.0;2.0;2.0;2.0;2.0;1.1188888888888888;1.0;1.0;0.0;0.0;0.7788888888888889;1.6152777777777778;1.0;1.0333333333333334;1.3105555555555555;2.0;2.0;2.0;2.0;Zurich;Zurich;Switzerland;46.44309771;6.909822610000001;46.1505741041958;6.30002493893297
6;16, Neuhauser Straße, Bezirksteil Kreuzviertel, Stadtbezirk 01 Altstadt-Lehel, München, Bayern, 80331, Deutschland;Neuhauser Straße 16;OSMAPI;3.678888888888889;0.0;0.0;0.0;0.0;0.0;0.0;0.0;0.0;0.0;0.4622222222222222;1.0;0.20583333333333334;0.0;0.0;0.0;0.5647222222222222;0.043055555555555555;1.4030555555555555;0.0;0.0;0.0;0.0;0.0;0.0;Zurich;Zurich;Switzerland;48.138864760000004;11.56786716;48.1870541617598;11.7195986279272
7;2, Weingasse, Bassersdorf, Bezirk Bülach, Zürich, 8303, Switzerland;Weingasse 4;Google;111.07972222222222;9.0;9.0;9.0;9.0;9.0;9.0;9.219722222222222;3.9158333333333335;1.0;1.0533333333333332;1.0;1.0;1.0;1.791111111111111;1.7775;1.0;1.0;1.4141666666666666;2.9066666666666667;3.0;3.3072222222222223;5.351111111111111;8.343055555555555;9.0;Zurich;Zurich;Switzerland;47.443536284444434;8.62496086222222;47.6424327808074;8.83501283798385
8;ETH Zürich, Zentrum, Clausiusstrasse, Oberstrass, Kreis 6, Zürich, Bezirk Zürich, Zürich, 8092, Switzerland;ETH/Universit盲tsspital;Google;11.369722222222222;0.0;0.0;0.0;0.0;0.0;0.0;0.0;0.0;0.0;0.0;0.0;0.0;0.0;0.8347222222222223;0.8561111111111112;0.5847222222222223;1.0;1.3933333333333333;2.540277777777778;2.0;1.5958333333333334;0.5647222222222222;0.0;0.0;Zurich;Zurich;Switzerland;47.377712333333335;8.548427766666665;47.5421108547357;8.71812684193631
9;1089a, Vogellisiweg, Sillerebühl, Adelboden, Verwaltungskreis Frutigen-Niedersimmental, Verwaltungsregion Oberland, Bern/Berne, 3715, Switzerland;1089a Vogellisiweg;OSMAPI;2.5197222222222226;0.0;0.0;0.0;0.0;0.0;0.0;0.0;0.0;0.0;0.7963888888888889;0.40444444444444444;0.0;0.385;0.8372222222222222;0.09666666666666666;0.0;0.0;0.0;0.0;0.0;0.0;0.0;0.0;0.0;Zurich;Zurich;Switzerland;46.471890179999995;7.518070080000001;46.158104907481;7.14525261762552
